[
    {
        "id": 1,
        "date": "2018-02-02",
        "venue": "Foro Indie Rocks",
        "lat": "19.416849115610894",
        "lng": "-99.156184402147",
        "tour_name": "U.S Tour 2018",
        "created_at": "2021-03-29T19:16:39.798242",
        "city": "Mexico City, ME",
        "poster": "https://zero-psy-sp.s3.amazonaws.com/tfucvf1tVGAf2QtaCgNwBVhD88z6uOli.png"
    },
    {
        "id": 2,
        "date": "2018-02-03",
        "venue": "Foro Lando",
        "lat": "19.301315503165828",
        "lng": "-99.65936118865751",
        "tour_name": "U.S Tour 2018",
        "created_at": "2021-03-29T19:18:02.865497",
        "city": "Toluca, ME",
        "poster": "https://zero-psy-sp.s3.amazonaws.com/AuCZr9j4eBWpa680vNryQxqtbpAc-xEi.jpg"
    },
    {
        "id": 74,
        "date": "2019-04-10",
        "venue": "The Tote",
        "lat": "-37.7992951945067",
        "lng": "144.9877110976526",
        "tour_name": "Australian Tour 2019",
        "created_at": "2021-04-01T12:05:37.804492",
        "city": "Melbourne ",
        "poster": null
    },
    {
        "id": 3,
        "date": "2018-02-06",
        "venue": "Bar Le Ritz",
        "lat": "45.53289261478667",
        "lng": "-73.62026141321755",
        "tour_name": "U.S Tour 2018",
        "created_at": "2021-03-29T19:21:22.360966",
        "city": "Montreal, QC",
        "poster": null
    },
    {
        "id": 4,
        "date": "2018-02-07",
        "venue": "Mavericks",
        "lat": "45.42883673992475",
        "lng": "-75.68774077682085",
        "tour_name": "U.S Tour 2018",
        "created_at": "2021-03-29T19:25:16.659894",
        "city": "Ottawa, ON",
        "poster": null
    },
    {
        "id": 5,
        "date": "2018-02-08",
        "venue": "Hard Luck",
        "lat": "43.65229804854383",
        "lng": "-79.40747229978025",
        "tour_name": "U.S Tour 2018",
        "created_at": "2021-03-29T19:26:50.890759",
        "city": "Toronto, ON",
        "poster": null
    },
    {
        "id": 6,
        "date": "2018-02-09",
        "venue": "Grog Shop",
        "lat": "41.50842240460916",
        "lng": "-81.5803375863483",
        "tour_name": "U.S Tour 2018",
        "created_at": "2021-03-29T19:28:08.731707",
        "city": "Cleveland, OH",
        "poster": null
    },
    {
        "id": 7,
        "date": "2018-02-10",
        "venue": "Reggies Rock Club",
        "lat": "41.85411776282939",
        "lng": "-87.62686303077567",
        "tour_name": "U.S Tour 2018",
        "created_at": "2021-03-29T20:15:10.895198",
        "city": "Chicago, IL",
        "poster": null
    },
    {
        "id": 8,
        "date": "2018-02-11",
        "venue": "Vaudeville Mews",
        "lat": "41.585701623875224",
        "lng": "-93.6221802731114",
        "tour_name": "U.S Tour 2018",
        "created_at": "2021-03-29T20:19:15.954292",
        "city": "Des Moines, IA",
        "poster": null
    },
    {
        "id": 9,
        "date": "2018-02-12",
        "venue": "7th St Entry",
        "lat": "44.97860477531662",
        "lng": "-93.27581754419631",
        "tour_name": "U.S Tour 2018",
        "created_at": "2021-03-29T20:32:25.127694",
        "city": "Minneapolis, MN",
        "poster": null
    },
    {
        "id": 10,
        "date": "2018-02-13",
        "venue": "Record Bar",
        "lat": "39.09519179257741",
        "lng": "-94.58132807316612",
        "tour_name": "U.S Tour 2018",
        "created_at": "2021-03-29T20:33:58.83742",
        "city": "Kansas City, MO",
        "poster": null
    },
    {
        "id": 11,
        "date": "2018-02-14",
        "venue": "Globe Hall",
        "lat": "39.77825187835501",
        "lng": "-104.98250638664592",
        "tour_name": "U.S Tour 2018",
        "created_at": "2021-03-29T20:35:31.931129",
        "city": "Denver, CO",
        "poster": null
    },
    {
        "id": 12,
        "date": "2018-02-15",
        "venue": "Metro Music Hall",
        "lat": "40.76711531920571",
        "lng": "-111.90900867497602",
        "tour_name": "U.S Tour 2018",
        "created_at": "2021-03-29T20:42:28.290574",
        "city": "Salt Lake City, UT",
        "poster": null
    },
    {
        "id": 13,
        "date": "2018-02-16",
        "venue": "The Shredder",
        "lat": "43.6141590701555",
        "lng": "-116.20869924568893",
        "tour_name": "U.S Tour 2018",
        "created_at": "2021-03-29T20:44:13.12158",
        "city": "Boise, ID",
        "poster": null
    },
    {
        "id": 14,
        "date": "2018-02-17",
        "venue": "El Corazon",
        "lat": "47.61888775296466",
        "lng": "-122.32932927296527",
        "tour_name": "U.S Tour 2018",
        "created_at": "2021-03-29T20:52:19.434545",
        "city": "Seattle, WA",
        "poster": null
    },
    {
        "id": 15,
        "date": "2018-02-18",
        "venue": " Astoria",
        "lat": "49.28150794622758",
        "lng": "-123.08786537292181",
        "tour_name": "U.S Tour 2018",
        "created_at": "2021-03-29T21:09:01.903058",
        "city": "Vancouver, BC",
        "poster": null
    },
    {
        "id": 16,
        "date": "2018-02-19",
        "venue": "Tonic Lounge",
        "lat": "45.53088742229229",
        "lng": "-122.63247162884196",
        "tour_name": "U.S Tour 2018",
        "created_at": "2021-03-29T21:10:21.235035",
        "city": "Portland, OR",
        "poster": null
    },
    {
        "id": 17,
        "date": "2018-02-20",
        "venue": "Brick and Mortar Music Hall",
        "lat": "37.769931483315666",
        "lng": "-122.42035662901787",
        "tour_name": "U.S Tour 2018",
        "created_at": "2021-03-29T21:11:46.473534",
        "city": "San Francisco, CA",
        "poster": null
    },
    {
        "id": 18,
        "date": "2018-02-21",
        "venue": "Resident",
        "lat": "34.042801332573994",
        "lng": "-118.2348790867608",
        "tour_name": "U.S Tour 2018",
        "created_at": "2021-03-29T21:13:52.865234",
        "city": "Los Angeles, CA",
        "poster": null
    },
    {
        "id": 19,
        "date": "2018-02-22",
        "venue": "Space",
        "lat": "32.755224392255236",
        "lng": "-117.11750597328962",
        "tour_name": "U.S Tour 2018",
        "created_at": "2021-03-29T21:21:30.073018",
        "city": "San Diego, CA",
        "poster": null
    },
    {
        "id": 20,
        "date": "2018-02-23",
        "venue": "The Rogue",
        "lat": "33.45380598829354",
        "lng": "-111.926010915344",
        "tour_name": "U.S Tour 2018",
        "created_at": "2021-03-29T21:25:24.954391",
        "city": "Phoenix, AZ",
        "poster": null
    },
    {
        "id": 21,
        "date": "2018-02-25",
        "venue": "Ridglea Theater",
        "lat": "32.72898114216992",
        "lng": "-97.41465190397153",
        "tour_name": "U.S Tour 2018",
        "created_at": "2021-03-29T21:29:48.786803",
        "city": " Ft Worth, TX",
        "poster": null
    },
    {
        "id": 22,
        "date": "2018-02-26",
        "venue": "Come And Take It Live",
        "lat": "30.241077033050196",
        "lng": "-97.72887650216725",
        "tour_name": "U.S Tour 2018",
        "created_at": "2021-03-29T21:32:09.505871",
        "city": "Austin, TX",
        "poster": null
    },
    {
        "id": 23,
        "date": "2018-02-27",
        "venue": "Santos Bar",
        "lat": "29.96083705504321",
        "lng": "-90.05954270401801",
        "tour_name": "U.S Tour 2018",
        "created_at": "2021-03-29T21:34:12.364928",
        "city": "New Orleans LA",
        "poster": null
    },
    {
        "id": 24,
        "date": "2018-02-28",
        "venue": "Will’s Pub",
        "lat": "28.56003827892722",
        "lng": "-81.36453142918232",
        "tour_name": "U.S Tour 2018",
        "created_at": "2021-03-29T21:35:35.636505",
        "city": "Orlando, FL",
        "poster": null
    },
    {
        "id": 25,
        "date": "2018-03-01",
        "venue": "529",
        "lat": "33.74010605898384",
        "lng": "-84.3452833597775",
        "tour_name": "U.S Tour 2018",
        "created_at": "2021-03-29T21:37:21.431685",
        "city": "Atlanta, GA",
        "poster": null
    },
    {
        "id": 26,
        "date": "2018-03-02",
        "venue": "Champion Brewing",
        "lat": "38.027836406967815",
        "lng": "-78.47816613085887",
        "tour_name": "U.S Tour 2018",
        "created_at": "2021-03-29T21:40:33.311749",
        "city": "Charlottesville, VA",
        "poster": null
    },
    {
        "id": 27,
        "date": "2018-03-03",
        "venue": "Black Cat",
        "lat": "38.91479117746453",
        "lng": "-77.03176048851074",
        "tour_name": "U.S Tour 2018",
        "created_at": "2021-03-29T21:47:03.26153",
        "city": "Washington, DC",
        "poster": null
    },
    {
        "id": 28,
        "date": "2018-03-04",
        "venue": "Kung Fu Necktie",
        "lat": "39.97042887077452",
        "lng": "-75.13595365965287",
        "tour_name": "U.S Tour 2018",
        "created_at": "2021-03-29T21:48:41.829463",
        "city": "Philadelphia, PA",
        "poster": null
    },
    {
        "id": 29,
        "date": "2018-03-05",
        "venue": "Saint Vitus",
        "lat": "40.73703316103286",
        "lng": "-73.95508281546005",
        "tour_name": "U.S Tour 2018",
        "created_at": "2021-03-29T21:50:29.078056",
        "city": "Brooklyn, NY",
        "poster": "https://zero-psy-sp.s3.amazonaws.com/ljruciTrhND90jECIAVEtfusRvnR62-F.jpg"
    },
    {
        "id": 75,
        "date": "2019-04-11",
        "venue": "Crown and Anchor",
        "lat": "-34.92356724230983",
        "lng": "138.60938339147012",
        "tour_name": "Australian Tour 2019",
        "created_at": "2021-04-01T12:06:41.495822",
        "city": " Adelaide",
        "poster": null
    },
    {
        "id": 76,
        "date": "2019-04-12",
        "venue": "Lucy’s Love Shack",
        "lat": "-31.95354864635234",
        "lng": "115.86281805148577",
        "tour_name": "Australian Tour 2019",
        "created_at": "2021-04-01T12:07:44.038749",
        "city": "Perth",
        "poster": null
    },
    {
        "id": 77,
        "date": "2019-04-13",
        "venue": "Indi Bar",
        "lat": "-31.896375075400947",
        "lng": "115.75954970626512",
        "tour_name": "Australian Tour 2019",
        "created_at": "2021-04-01T12:10:07.426116",
        "city": "Scarborough",
        "poster": null
    },
    {
        "id": 78,
        "date": "2018-04-12",
        "venue": "Zet Pe Te",
        "lat": "50.06505844263376",
        "lng": "19.927322013630103",
        "tour_name": "Into the Spell European Tour 2018",
        "created_at": "2021-04-01T13:04:12.447892",
        "city": "Krakow, PL",
        "poster": null
    },
    {
        "id": 79,
        "date": "2018-04-13",
        "venue": "Smoke Over Warsaw III",
        "lat": "52.259415253664386",
        "lng": "21.037489170765205",
        "tour_name": "Into the Spell European Tour 2018",
        "created_at": "2021-04-01T13:07:23.500367",
        "city": "Warsaw, PL",
        "poster": null
    },
    {
        "id": 68,
        "date": "2019-04-03",
        "venue": "The Basement",
        "lat": "-35.240159252274466",
        "lng": "149.05946877858273",
        "tour_name": "Australian Tour 2019",
        "created_at": "2021-04-01T11:46:59.883446",
        "city": "Canberra",
        "poster": null
    },
    {
        "id": 69,
        "date": "2019-04-04",
        "venue": "Factory Floor",
        "lat": "-33.90556719561288",
        "lng": "151.1663390030931",
        "tour_name": "Australian Tour 2019",
        "created_at": "2021-04-01T11:56:02.317411",
        "city": " Sydney",
        "poster": null
    },
    {
        "id": 70,
        "date": "2019-04-05",
        "venue": "Stay Gold",
        "lat": "-37.77417149337066",
        "lng": "144.9609178227945",
        "tour_name": "Australian Tour 2019",
        "created_at": "2021-04-01T11:57:29.987317",
        "city": "Melbourne",
        "poster": null
    },
    {
        "id": 80,
        "date": "2018-04-14",
        "venue": "Loftas",
        "lat": "54.6713337504523",
        "lng": "25.269749868987706",
        "tour_name": "Into the Spell European Tour 2018",
        "created_at": "2021-04-01T13:08:57.014299",
        "city": "Vilnius, LT",
        "poster": null
    },
    {
        "id": 71,
        "date": "2019-04-06",
        "venue": "Mojo Burning Festival",
        "lat": "-27.438915323813934",
        "lng": "153.0643938072104",
        "tour_name": "Australian Tour 2019",
        "created_at": "2021-04-01T12:01:10.57165",
        "city": "Brisbane",
        "poster": "https://zero-psy-sp.s3.amazonaws.com/3CBF4pT997tB9v_cmQ671Zj4aU_Shi4s.jpg"
    },
    {
        "id": 72,
        "date": "2019-04-07",
        "venue": "The Barwon Club",
        "lat": "-38.16288980157373",
        "lng": "144.35452591300287",
        "tour_name": "Australian Tour 2019",
        "created_at": "2021-04-01T12:03:16.307993",
        "city": "Geelong",
        "poster": null
    },
    {
        "id": 73,
        "date": "2019-04-09",
        "venue": "Hobart Brewing Co",
        "lat": "-42.881130168041906",
        "lng": "147.3381346284734",
        "tour_name": "Australian Tour 2019",
        "created_at": "2021-04-01T12:04:39.902347",
        "city": "Hobart ",
        "poster": null
    },
    {
        "id": 81,
        "date": "2018-04-15",
        "venue": "Rockstars",
        "lat": "59.43192434449513",
        "lng": "24.74673032310847",
        "tour_name": "Into the Spell European Tour 2018",
        "created_at": "2021-04-01T13:10:19.287782",
        "city": "Tallinn, EE",
        "poster": null
    },
    {
        "id": 82,
        "date": "2018-04-17",
        "venue": "Kuudes Linja",
        "lat": "60.18378440086607",
        "lng": "24.96024265935234",
        "tour_name": "Into the Spell European Tour 2018",
        "created_at": "2021-04-01T13:12:07.95561",
        "city": "Helsinki, FIN",
        "poster": null
    },
    {
        "id": 83,
        "date": "2018-04-18",
        "venue": "I-Klubi",
        "lat": "61.49852351774349",
        "lng": "23.776955405986307",
        "tour_name": "Into the Spell European Tour 2018",
        "created_at": "2021-04-01T13:15:54.47711",
        "city": "Tampere, FIN",
        "poster": null
    },
    {
        "id": 85,
        "date": "2018-04-21",
        "venue": "Blå",
        "lat": "59.92015397451092",
        "lng": "10.75311206176064",
        "tour_name": "Into the Spell European Tour 2018",
        "created_at": "2021-04-01T13:19:40.215695",
        "city": "Oslo, NOR",
        "poster": null
    },
    {
        "id": 84,
        "date": "2018-04-20",
        "venue": "Kraken",
        "lat": "59.29379124194941",
        "lng": "18.080394829103966",
        "tour_name": "Into the Spell European Tour 2018",
        "created_at": "2021-04-01T13:17:30.860673",
        "city": "Stockholm, SWE",
        "poster": null
    },
    {
        "id": 87,
        "date": "2018-04-23",
        "venue": "Stengade",
        "lat": "55.68772048197588",
        "lng": "12.555496840752422",
        "tour_name": "Into the Spell European Tour 2018",
        "created_at": "2021-04-01T13:22:56.678882",
        "city": "Copenhagen, DK",
        "poster": null
    },
    {
        "id": 86,
        "date": "2018-04-22",
        "venue": "Plan B",
        "lat": "55.58422929429821",
        "lng": "13.02682696532175",
        "tour_name": "Into the Spell European Tour 2018",
        "created_at": "2021-04-01T13:21:35.891095",
        "city": "Malmö, SWE",
        "poster": null
    },
    {
        "id": 88,
        "date": "2018-04-24",
        "venue": "Festsaal Kreuzberg (Desertfest Warm-Up)",
        "lat": "52.496994334102475",
        "lng": "13.4520989870456",
        "tour_name": "Into the Spell European Tour 2018",
        "created_at": "2021-04-01T13:25:31.425472",
        "city": "Berlin, DE",
        "poster": null
    },
    {
        "id": 90,
        "date": "2018-04-26",
        "venue": "007",
        "lat": "50.08056528824193",
        "lng": "14.393129111188719",
        "tour_name": "Into the Spell European Tour 2018",
        "created_at": "2021-04-01T13:27:58.517291",
        "city": "Prag, CZ",
        "poster": null
    },
    {
        "id": 89,
        "date": "2018-04-25",
        "venue": "Pod Minoga",
        "lat": "52.409431085417445",
        "lng": "16.927760986110172",
        "tour_name": "Into the Spell European Tour 2018",
        "created_at": "2021-04-01T13:26:42.762862",
        "city": "Poznan, PL",
        "poster": null
    },
    {
        "id": 91,
        "date": "2018-04-27",
        "venue": "Akvárium Klub",
        "lat": "47.498500152405505",
        "lng": "19.0550750031652",
        "tour_name": "Into the Spell European Tour 2018",
        "created_at": "2021-04-01T13:32:25.244636",
        "city": "Budapest, HUN",
        "poster": null
    },
    {
        "id": 92,
        "date": "2018-04-28",
        "venue": "PPC",
        "lat": "47.075910812279325",
        "lng": "15.43175830741723",
        "tour_name": "Into the Spell European Tour 2018",
        "created_at": "2021-04-01T13:33:50.043038",
        "city": "Graz, A",
        "poster": null
    },
    {
        "id": 93,
        "date": "2018-04-29",
        "venue": " Arena",
        "lat": "48.187980118015126",
        "lng": "16.41350582457234",
        "tour_name": "Into the Spell European Tour 2018",
        "created_at": "2021-04-01T13:34:59.720903",
        "city": "Vienna, A",
        "poster": null
    },
    {
        "id": 94,
        "date": "2017-03-23",
        "venue": "MIXTAPE5",
        "lat": "42.683227995973574",
        "lng": "23.321525193815756",
        "tour_name": "Repeated & Exposed - EU Tour 2017",
        "created_at": "2021-04-01T15:01:31.632808",
        "city": "Sofia, BG",
        "poster": null
    },
    {
        "id": 95,
        "date": "2017-03-24",
        "venue": "Fabrica",
        "lat": "44.42240106715674",
        "lng": "26.102577353335793",
        "tour_name": "Repeated & Exposed - EU Tour 2017",
        "created_at": "2021-04-01T15:03:49.244388",
        "city": " Bucharest, RO",
        "poster": null
    },
    {
        "id": 96,
        "date": "2017-03-25",
        "venue": "The Shelter",
        "lat": "46.77101738817348",
        "lng": "23.590091470618773",
        "tour_name": "Repeated & Exposed - EU Tour 2017",
        "created_at": "2021-04-01T15:09:14.8275",
        "city": "Cluj Napoca, RO",
        "poster": null
    },
    {
        "id": 97,
        "date": "2017-03-26",
        "venue": "DAOS Club",
        "lat": "45.750897092868236",
        "lng": "21.217185909230263",
        "tour_name": "Repeated & Exposed - EU Tour 2017",
        "created_at": "2021-04-01T15:10:53.62629",
        "city": "Timisoara, RO",
        "poster": null
    },
    {
        "id": 98,
        "date": "2017-03-28",
        "venue": "Elektropionir",
        "lat": "44.81785162637013",
        "lng": "20.465948011053587",
        "tour_name": "Repeated & Exposed - EU Tour 2017",
        "created_at": "2021-04-01T15:13:04.082351",
        "city": "Beograd, RS",
        "poster": null
    },
    {
        "id": 100,
        "date": "2017-03-29",
        "venue": "The Quarter",
        "lat": "45.23780058671762",
        "lng": "19.843274449700846",
        "tour_name": "Repeated & Exposed - EU Tour 2017",
        "created_at": "2021-04-01T15:15:24.276721",
        "city": "Novi Sad, RS",
        "poster": null
    },
    {
        "id": 101,
        "date": "2017-03-30",
        "venue": "MKC",
        "lat": "45.073424385870766",
        "lng": "18.705170012008065",
        "tour_name": "Repeated & Exposed - EU Tour 2017",
        "created_at": "2021-04-01T15:16:44.628928",
        "city": "Zupanja, HR",
        "poster": null
    },
    {
        "id": 102,
        "date": "2017-04-01",
        "venue": "Under The Black Moon",
        "lat": "48.145073021073635",
        "lng": "11.521881956184604",
        "tour_name": "Repeated & Exposed - EU Tour 2017",
        "created_at": "2021-04-01T15:29:16.606767",
        "city": " Munich, DE",
        "poster": null
    },
    {
        "id": 103,
        "date": "2017-04-02",
        "venue": "Werk 2",
        "lat": "51.3105256049454",
        "lng": "12.37308286704629",
        "tour_name": "Repeated & Exposed - EU Tour 2017",
        "created_at": "2021-04-01T15:30:45.300719",
        "city": "Leipzig, DE",
        "poster": null
    },
    {
        "id": 104,
        "date": "2017-04-03",
        "venue": "Klub 007",
        "lat": "50.0807305231401",
        "lng": "14.393118382353533",
        "tour_name": "Repeated & Exposed - EU Tour 2017",
        "created_at": "2021-04-01T15:32:25.649109",
        "city": "Prague, CZ",
        "poster": null
    },
    {
        "id": 105,
        "date": "2017-04-04",
        "venue": "Durer Kert",
        "lat": "47.509917770976685",
        "lng": "19.0903694920876",
        "tour_name": "Repeated & Exposed - EU Tour 2017",
        "created_at": "2021-04-01T15:34:57.42077",
        "city": "Budapest, HU",
        "poster": null
    },
    {
        "id": 106,
        "date": "2017-04-05",
        "venue": "Vintage Industrial Bar",
        "lat": "45.79074928057621",
        "lng": "15.955535638066372",
        "tour_name": "Repeated & Exposed - EU Tour 2017",
        "created_at": "2021-04-01T15:36:16.866933",
        "city": " Zagreb, HR",
        "poster": null
    },
    {
        "id": 107,
        "date": "2017-04-06",
        "venue": "P.M.K.",
        "lat": "47.26810132387167",
        "lng": "11.402716151598073",
        "tour_name": "Repeated & Exposed - EU Tour 2017",
        "created_at": "2021-04-01T15:38:08.630816",
        "city": "Innsbruck, AT",
        "poster": null
    },
    {
        "id": 108,
        "date": "2017-04-07",
        "venue": "MUZ",
        "lat": "49.45037949046721",
        "lng": "11.055342416483436",
        "tour_name": "Repeated & Exposed - EU Tour 2017",
        "created_at": "2021-04-01T15:40:41.999732",
        "city": "Nürnberg, DE",
        "poster": null
    },
    {
        "id": 110,
        "date": "2017-04-08",
        "venue": "AJZ",
        "lat": "50.860728146918596",
        "lng": "12.922940742200723",
        "tour_name": "Repeated & Exposed - EU Tour 2017",
        "created_at": "2021-04-01T15:43:30.960692",
        "city": "Chemnitz, DE",
        "poster": null
    },
    {
        "id": 111,
        "date": "2017-04-09",
        "venue": "Bastard Club",
        "lat": "52.275548108963626",
        "lng": "8.056352527159946",
        "tour_name": "Repeated & Exposed - EU Tour 2017",
        "created_at": "2021-04-01T15:45:35.610451",
        "city": "Osnabruck, DE",
        "poster": null
    },
    {
        "id": 112,
        "date": "2017-04-10",
        "venue": "Hafenklang",
        "lat": "53.54450025475145",
        "lng": "9.948008924643899",
        "tour_name": "Repeated & Exposed - EU Tour 2017",
        "created_at": "2021-04-01T15:47:01.432065",
        "city": "Hamburg, DE",
        "poster": null
    },
    {
        "id": 113,
        "date": "2017-04-11",
        "venue": "Winston Kingdom",
        "lat": "52.37394138529464",
        "lng": "4.896247602375659",
        "tour_name": "Repeated & Exposed - EU Tour 2017",
        "created_at": "2021-04-01T15:48:26.910054",
        "city": "Amsterdam, NL",
        "poster": null
    },
    {
        "id": 114,
        "date": "2017-04-12",
        "venue": "Alte Hackerei",
        "lat": "49.005824380193715",
        "lng": "8.429440605019694",
        "tour_name": "Repeated & Exposed - EU Tour 2017",
        "created_at": "2021-04-01T15:49:53.72822",
        "city": "Karlsruhe, DE",
        "poster": null
    },
    {
        "id": 115,
        "date": "2017-04-13",
        "venue": "Slow Club",
        "lat": "47.9925074991802",
        "lng": "7.833599327044391",
        "tour_name": "Repeated & Exposed - EU Tour 2017",
        "created_at": "2021-04-01T15:51:22.564872",
        "city": "Freiburg, DE",
        "poster": null
    },
    {
        "id": 116,
        "date": "2017-04-14",
        "venue": "Coq d'Or",
        "lat": "47.35160392073039",
        "lng": "7.908568053535922",
        "tour_name": "Repeated & Exposed - EU Tour 2017",
        "created_at": "2021-04-01T15:52:38.115185",
        "city": "Olten, CH",
        "poster": null
    },
    {
        "id": 117,
        "date": "2017-04-15",
        "venue": "Gaswerk Kulturzentrum",
        "lat": "47.49442263198535",
        "lng": "8.707777798196378",
        "tour_name": "Repeated & Exposed - EU Tour 2017",
        "created_at": "2021-04-01T15:54:04.430693",
        "city": "Winterthur, CH",
        "poster": null
    },
    {
        "id": 118,
        "date": "2017-04-17",
        "venue": "Dabadaba",
        "lat": "43.315550343237994",
        "lng": "-1.9763834212175113",
        "tour_name": "Repeated & Exposed - EU Tour 2017",
        "created_at": "2021-04-01T15:55:41.838782",
        "city": "San Sebastian, ES",
        "poster": null
    },
    {
        "id": 119,
        "date": "2017-04-18",
        "venue": "Sala Acapulco",
        "lat": "43.539624853669636",
        "lng": "-5.6624235179207565",
        "tour_name": "Repeated & Exposed - EU Tour 2017",
        "created_at": "2021-04-01T15:57:08.382419",
        "city": "Gijon, ES",
        "poster": null
    },
    {
        "id": 120,
        "date": "2017-04-19",
        "venue": "Cave 45",
        "lat": "41.14945913634673",
        "lng": "-8.614928230992216",
        "tour_name": "Repeated & Exposed - EU Tour 2017",
        "created_at": "2021-04-01T15:58:13.156231",
        "city": "Porto, PT",
        "poster": null
    },
    {
        "id": 121,
        "date": "2017-04-20",
        "venue": "RCA Club",
        "lat": "38.756863757899815",
        "lng": "-9.14209507524089",
        "tour_name": "Repeated & Exposed - EU Tour 2017",
        "created_at": "2021-04-01T15:59:32.851649",
        "city": "Lisbon, PT ",
        "poster": null
    },
    {
        "id": 122,
        "date": "2017-04-21",
        "venue": "Wurlitzer Ballroom",
        "lat": "40.41971713509119",
        "lng": "-3.702490975198596",
        "tour_name": "Repeated & Exposed - EU Tour 2017",
        "created_at": "2021-04-01T16:00:50.477366",
        "city": "Madrid, ES",
        "poster": null
    },
    {
        "id": 123,
        "date": "2017-04-22",
        "venue": "Riff Ritual Fest",
        "lat": "41.39771992721839",
        "lng": "2.1911028831966313",
        "tour_name": "Repeated & Exposed - EU Tour 2017",
        "created_at": "2021-04-01T16:02:40.393565",
        "city": "Barcelona, ES",
        "poster": null
    },
    {
        "id": 124,
        "date": "2017-04-23",
        "venue": "Black Sheep",
        "lat": "43.61472070434796",
        "lng": "3.879998296305014",
        "tour_name": "Repeated & Exposed - EU Tour 2017",
        "created_at": "2021-04-01T16:03:58.611748",
        "city": "Montpellier, FR",
        "poster": null
    },
    {
        "id": 125,
        "date": "2017-04-24",
        "venue": "Kalvingrad",
        "lat": "46.2040504081064",
        "lng": "6.13618744328613",
        "tour_name": "Repeated & Exposed - EU Tour 2017",
        "created_at": "2021-04-01T16:05:59.330852",
        "city": "Genève, CH",
        "poster": null
    },
    {
        "id": 126,
        "date": "2017-04-25",
        "venue": "Le Grillen",
        "lat": "48.07575101846091",
        "lng": "7.371124163144619",
        "tour_name": "Repeated & Exposed - EU Tour 2017",
        "created_at": "2021-04-01T16:08:03.710555",
        "city": "Colmar, FR",
        "poster": null
    },
    {
        "id": 127,
        "date": "2017-04-27",
        "venue": "Petit Bain",
        "lat": "48.835525068701976",
        "lng": "2.376712370055628",
        "tour_name": "Repeated & Exposed - EU Tour 2017",
        "created_at": "2021-04-01T16:09:23.527565",
        "city": "Paris, FR",
        "poster": null
    },
    {
        "id": 128,
        "date": "2017-04-28",
        "venue": "DESERTFEST London",
        "lat": "51.53968316599808",
        "lng": "-0.14300984814221548",
        "tour_name": "Repeated & Exposed - EU Tour 2017",
        "created_at": "2021-04-01T16:12:15.215987",
        "city": "London, UK",
        "poster": null
    },
    {
        "id": 129,
        "date": "2017-04-29",
        "venue": "Burgerweeshuis",
        "lat": "52.25444276823475",
        "lng": "6.155278137448387",
        "tour_name": "Repeated & Exposed - EU Tour 2017",
        "created_at": "2021-04-01T16:13:40.507273",
        "city": " Deventer, NL",
        "poster": null
    },
    {
        "id": 130,
        "date": "2017-04-30",
        "venue": "DESERTFEST Berlin",
        "lat": "52.508304738255546",
        "lng": "13.452366777825512",
        "tour_name": "Repeated & Exposed - EU Tour 2017",
        "created_at": "2021-04-01T16:15:04.717884",
        "city": "Berlin, DE",
        "poster": null
    },
    {
        "id": 131,
        "date": "2017-05-03",
        "venue": "Tetris",
        "lat": "45.646938170807736",
        "lng": "13.768185026237221",
        "tour_name": "Repeated & Exposed - EU Tour 2017",
        "created_at": "2021-04-01T16:16:21.924241",
        "city": "Trieste, IT",
        "poster": null
    },
    {
        "id": 132,
        "date": "2017-05-04",
        "venue": "Blah Blah",
        "lat": "45.0687829926979",
        "lng": "7.689460585844219",
        "tour_name": "Repeated & Exposed - EU Tour 2017",
        "created_at": "2021-04-01T16:17:30.026608",
        "city": "Torino, IT",
        "poster": null
    },
    {
        "id": 133,
        "date": "2017-05-05",
        "venue": "Albatross",
        "lat": "43.71774721898524",
        "lng": "10.400083873468517",
        "tour_name": "Repeated & Exposed - EU Tour 2017",
        "created_at": "2021-04-01T16:18:42.51103",
        "city": "Pisa, IT",
        "poster": null
    },
    {
        "id": 134,
        "date": "2017-05-06",
        "venue": "TUBECULT Festival",
        "lat": "42.461880703801135",
        "lng": "14.212979566519039",
        "tour_name": "Repeated & Exposed - EU Tour 2017",
        "created_at": "2021-04-01T16:21:14.647842",
        "city": "Pescara, IT",
        "poster": null
    },
    {
        "id": 135,
        "date": "2017-05-07",
        "venue": "ARCI Open Source",
        "lat": "41.12494273174715",
        "lng": "16.856072070383483",
        "tour_name": "Repeated & Exposed - EU Tour 2017",
        "created_at": "2021-04-01T16:22:31.395264",
        "city": "Bari, IT",
        "poster": null
    },
    {
        "id": 136,
        "date": "2006-07-18",
        "venue": "Lechio Beach",
        "lat": "37.93793555714736",
        "lng": "22.85656991175788",
        "tour_name": "1st Gig Ever",
        "created_at": "2021-04-01T16:24:46.75407",
        "city": "Korinthos, GR",
        "poster": "https://zero-psy-sp.s3.amazonaws.com/e8huwlLaBL6PbygPde8xeLAy1PD6X0K-.png"
    },
    {
        "id": 140,
        "date": "2021-04-04",
        "venue": "Εκκλησία",
        "lat": "36.96472771791783",
        "lng": "21.70352066911943",
        "tour_name": "Λυδίας Τούρ",
        "created_at": "2021-04-04T15:43:13.866583",
        "city": "Ζγράπα",
        "poster": "https://zero-psy-sp.s3.amazonaws.com/4P-t_w3iR7333q1Ctx064oGiyDjS02_q.gif"
    },
    {
        "id": 141,
        "date": "2021-04-05",
        "venue": "Γρέκ Ιτ Στούντιος",
        "lat": "37.93526777973412",
        "lng": "22.925100569139275",
        "tour_name": "Λάιφ ιζ νάις του λίβ ίν ιτ !",
        "created_at": "2021-04-05T20:56:41.750501",
        "city": "Κόρινθος",
        "poster": "https://zero-psy-sp.s3.amazonaws.com/TrmjueNALQJ0ZTUl4FHjG5z-Wr51KWqK.jpg"
    }
]
